{
    "type": "FeatureCollection",
    "crs": {
      "type": "name",
      "properties": { "name": "urn:ogc:def:crs:OGC:1.3:CRS84" }
    },
    "features": [
      {
        "type": "Feature",
        "properties": {
          "id": 1,          
          "NAME": "Old Slankamen, Danube, Serbia",
          "color": "blue"
        },
        "geometry": {
          "type": "Point",
          "coordinates": [20.281414, 45.135948]          
        }
      },
      {
        "type": "Feature",
        "properties": {
          "id": 3,
          "NAME": "BARBADOS CORAL SHELF",
          "color": "blue"
        },
        "geometry": {
          "type": "Point",
          "coordinates": [-59.574477, 13.185071 ]
        }
      },
      {
        "type": "Feature",
        "properties": {
          "id": 4,
          "NAME": "FOSSIL REEFS ON BAHAMAS ISLANDS",
          "color": "blue"
        },
        "geometry": {
          "type": "Point",
          "coordinates": [-76.146659, 25.151719]
        }
      },
      {
        "type": "Feature",
        "properties": {
          "id": 5,
          "NAME": "RECORD TAKEN FROM THE CONTINENTAL SHELF OFF NAMIBIA",
          "color": "blue"
        },
        "geometry": {
          "type": "Point",
          "coordinates": [17.668053, -25.471499]
        }
      },      
      {
        "type": "Feature",
        "properties": {
          "id": 6,
          "NAME": "VOSTOKÂ RESEARCH STATION IN ANTARTICA",
          "color": "blue"
        },
        "geometry": {
          "type": "Point",
          "coordinates": [105.999108, -77.500106]
        }
      },
      {
        "type": "Feature",
        "properties": {
          "id": 7,
          "NAME": "LAKE BIWA, JAPAN",
          "color": "blue"
        },
        "geometry": {
          "type": "Point",
          "coordinates": [136.179694, 35.331335]
        }
      },
      {
        "type": "Feature",
        "properties": {
          "id": 8,
          "NAME": "NIIGATA NEOGENE SEDIMENTARY BASIN, CENTRAL JAPAN",
          "color": "blue"
        },
        "geometry": {
          "type": "Point",
          "coordinates": [138.757646, 37.569005]
        }
      },
      {
        "type": "Feature",
        "properties": {
          "id": 9,
          "NAME": "CORALS REEFS IN THE HENDERSON ISLAND",
          "color": "blue"
        },
        "geometry": {
          "type": "Point",
          "coordinates": [-128.327266, -24.375963]           
        }
      },
      {
        "type": "Feature",
        "properties": {
          "id": 10,
          "NAME": "RECORD OF BIOGENIC SILICA FROM LAKE BAIKAL IN SOUTH-CENTRAL SIBERIA",
          "color": "blue"
        },
        "geometry": {
          "type": "Point",
          "coordinates": [108.257975, 53.586240]           
        }
      },
      {
        "type": "Feature",
        "properties": {
          "id": 11,
          "NAME": "MOOREVILLE CHALK (CAMPANIAN) IN THE NORTHEASTERN GULF OF MEXICO AREA",
          "color": "blue"
        },
        "geometry": {
          "type": "Point",
          "coordinates": [-85.297886, 29.672496]
          
        }
      },
      {
        "type": "Feature",
        "properties": {
          "id": 12,
          "NAME": "BOREHOLE IN THE PACIFIC OCEAN",
          "color": "blue"
        },
        "geometry": {
          "type": "Point",
          "coordinates": [-140.671700, -4.870345]           
        }
      },
      {
        "type": "Feature",
        "properties": {
          "id": 13,
          "NAME": "SOUTH AUSTRALIAN RIDGE",
          "color": "blue"
        },
        "geometry": {
          "type": "Point",
          "coordinates": [138.553389, -31.412185]            
        }
      },
      {
        "type": "Feature",
        "properties": {
          "id": 14,
          "NAME": "ATOL EINWETOK, PACIFIC",
          "color": "blue"
        },
        "geometry": {
          "type": "Point",
          "coordinates": [162.188748, 11.472356]                       
        }
      },
      {
        "type": "Feature",
        "properties": {
          "id": 15,
          "NAME": "VILLAGE ORERA, SPAIN",
          "color": "blue"
        },
        "geometry": {
          "type": "Point",
          "coordinates": [-1.476047, 41.299511]                      
        }
      },
      {
        "type": "Feature",
        "properties": {
          "id": 16,
          "NAME": "Project CLIMAP, Southern Indian Ocean",
          "color": "red"
        },
        "geometry": {
          "type": "Point",
          "coordinates": [81.816451, -33.236493]            
        }
      },
      {
        "type": "Feature",
        "properties": {
          "id": 17,
          "NAME": "Newark Basin, USA",
          "color": "blue"
        },
        "geometry": {
          "type": "Point",
          "coordinates": [-76.318723, 39.275035]                       
        }
      },
      {
        "type": "Feature",
        "properties": {
          "id": 18,
          "NAME": "Papua New Guinea",
          "color": "blue"
        },
        "geometry": {
          "type": "Point",
          "coordinates": [144.034234, -5.634959]                       
        }
      }
      
    ]
  }