{
    "type": "FeatureCollection",
    "crs": {
      "type": "name",
      "properties": { "name": "urn:ogc:def:crs:OGC:1.3:CRS84" }
    },
    "features": [
      {
        "type": "Feature",
        "properties": {
          "id": 3,
          "NAME": "CORAL REEFS ON BARBADOS",
          "color": "blue"
        },
        "geometry": {
          "type": "Point",
          "coordinates": [-59.574477, 13.185071 ]
        }
      },
      {
        "type": "Feature",
        "properties": {
          "id": 4,
          "NAME": "FOSSIL REEFS ON BAHAMAS ISLANDS",
          "color": "blue"
        },
        "geometry": {
          "type": "Point",
          "coordinates": [-76.146659, 25.151719]
        }
      },
      {
        "type": "Feature",
        "properties": {
          "id": 5,
          "NAME": "RECORD TAKEN FROM THE CONTINENTAL SHELF OFF NAMIBIA",
          "color": "blue"
        },
        "geometry": {
          "type": "Point",
          "coordinates": [17.668053, -25.471499]
        }
      },      
      {
        "type": "Feature",
        "properties": {
          "id": 6,
          "NAME": "VOSTOKÂ RESEARCH STATION IN ANTARTICA",
          "color": "red"
        },
        "geometry": {
          "type": "Point",
          "coordinates": [105.999108, -77.500106]
        }
      },
      {
        "type": "Feature",
        "properties": {
          "id": 7,
          "NAME": "LAKE BIWA, JAPAN",
          "color": "blue"
        },
        "geometry": {
          "type": "Point",
          "coordinates": [136.179694, 35.331335]
        }
      },
      {
        "type": "Feature",
        "properties": {
          "id": 8,
          "NAME": "NIIGATA NEOGENE SEDIMENTARY BASIN, CENTRAL JAPAN",
          "color": "blue"
        },
        "geometry": {
          "type": "Point",
          "coordinates": [138.757646, 37.569005]
        }
      },
      {
        "type": "Feature",
        "properties": {
          "id": 9,
          "NAME": "CORALS REEFS IN THE HENDERSON ISLAND",
          "color": "blue"
        },
        "geometry": {
          "type": "Point",
          "coordinates": [-128.327266, -24.375963]           
        }
      },
      {
        "type": "Feature",
        "properties": {
          "id": 10,
          "NAME": "RECORD OF BIOGENIC SILICA FROM LAKE BAIKAL IN SOUTH-CENTRAL SIBERIA",
          "color": "blue"
        },
        "geometry": {
          "type": "Point",
          "coordinates": [108.257975, 53.586240]           
        }
      },
      {
        "type": "Feature",
        "properties": {
          "id": 11,
          "NAME": "MOOREVILLE CHALK (CAMPANIAN) IN THE NORTHEASTERN GULF OF MEXICO AREA",
          "color": "blue"
        },
        "geometry": {
          "type": "Point",
          "coordinates": [-85.297886, 29.672496]
          
        }
      },
      {
        "type": "Feature",
        "properties": {
          "id": 12,
          "NAME": "BOREHOLE IN THE PACIFIC OCEAN",
          "color": "blue"
        },
        "geometry": {
          "type": "Point",
          "coordinates": [-140.671700, -4.870345]           
        }
      }
      
    ]
  }